[
  {
    "name": "Sunny Acres Farm",
    "location": "Rushworth",
    "lat": -36.5833,
    "lng": 145.0167,
    "videos": [
      {
        "videoId": "rBmlOjNbR_U",
        "title": "Sunny Acres Farm Camping &amp; Farmstay, Rushworth Victoria"
      }
    ]
  },
  {
    "name": "Tostaree Cottages",
    "location": "Tostaree",
    "lat": -37.7667,
    "lng": 148.1333,
    "videos": [
      {
        "videoId": "GXrDq5r-0iU",
        "title": "Tostaree Cottages, Farmstay Camping - Tostaree, Victoria, Australia"
      }
    ]
  },
  {
    "name": "Tranquil Farm Stay",
    "location": "Gippsland",
    "lat": -38.05,
    "lng": 146.5,
    "videos": [
      {
        "videoId": "dWSumDCb7jg",
        "title": "Drone Video - Tranquil Farm Stay Gippsland Australia"
      }
    ]
  },
  {
    "name": "Johanna River Farm",
    "location": "Johanna",
    "lat": -38.75,
    "lng": 143.3833,
    "videos": [
      {
        "videoId": "hRT2-v2W5es",
        "title": "JOHANNA RIVER FARM AND COTTAGES"
      }
    ]
  },
  {
    "name": "Woolsville",
    "location": "Yarra Valley",
    "lat": -37.75,
    "lng": 145.5833,
    "videos": [
      {
        "videoId": "kDZHeIzz5IU",
        "title": "3D2N farmstay in melbourne \ud83c\udf45\ud83c\udf3e\ud83d\udc11 yarra valley chocolaterie, woolsville, tiny home \ud83c\udfe0!"
      }
    ]
  },
  {
    "name": "Glut Farm",
    "location": "Beaufort",
    "lat": -37.4333,
    "lng": 143.3833,
    "videos": [
      {
        "videoId": "w268c4LZ-Ps",
        "title": "Glut Farm Luxury farmstay Victoria Australia #seeaustralia #farmstay #australia #travelgram"
      },
      {
        "videoId": "OMeflqHRINU",
        "title": "Glut Farm Luxury Farmstay Explore 100 acres of private land in the foothills of Mount Cole, Victoria"
      },
      {
        "videoId": "U-gIcsHtuSc",
        "title": "Glut Farm Luxury farmstay | snow in spring! #seeaustralia #travelgram #farmstay"
      }
    ]
  },
  {
    "name": "Cedar Glen Farmstay",
    "location": "Healesville",
    "lat": -37.6536,
    "lng": 145.5167,
    "videos": [
      {
        "videoId": "c5K-pA7l_e0",
        "title": "Cedar Glen Farmstay | My Way"
      }
    ]
  },
  {
    "name": "Curlewis Farm Stay",
    "location": "Curlewis",
    "lat": -38.2667,
    "lng": 144.7333,
    "videos": [
      {
        "videoId": "5xKQz7Vdwz8",
        "title": "Farm Stay 2 hours from Melbourne"
      }
    ]
  },
  {
    "name": "Port Farm",
    "location": "Port Campbell",
    "lat": -38.6167,
    "lng": 143.0167,
    "videos": [
      {
        "videoId": "5x3SiWDWDUo",
        "title": "Luxury Off Grid Stay Airbnb near 12 Apostles | Port Farm | Great Ocean Road |Unique Stay in Victoria"
      },
      {
        "videoId": "cidWqM-LhKY",
        "title": "Port Farm Accomodation Great Ocean Road | Port Stay | Luxury Stay | Boutique Stay | 12 Apostles"
      }
    ]
  },
  {
    "name": "Forest Edge Farm Stay",
    "location": "Molyullah",
    "lat": -36.75,
    "lng": 146.1167,
    "videos": [
      {
        "videoId": "K9-kr-8jx6k",
        "title": "Forest Edge Farm Stay Molyullah Victoria"
      }
    ]
  },
  {
    "name": "Galwiji Homestead",
    "location": "Gippsland",
    "lat": -38.05,
    "lng": 146.25,
    "videos": [
      {
        "videoId": "BsqFKS-2LTk",
        "title": "Galwiji Homestead Farmstay Victoria"
      }
    ]
  },
  {
    "name": "Yarra Valley Farmstay",
    "location": "Yarra Valley",
    "lat": -37.75,
    "lng": 145.5833,
    "videos": [
      {
        "videoId": "5jL5AYCL1gE",
        "title": "Farm stay in the Yarra Valley @ Melbourne \ud83c\udde6\ud83c\uddfa"
      },
      {
        "videoId": "jrzEUCq2vrY",
        "title": "35 Years of Lavender Farming: Annemarie Manders&#39; Journey in the Yarra Valley"
      }
    ]
  },
  {
    "name": "Linnaeus Farm",
    "location": "Regional Victoria",
    "lat": -37.5,
    "lng": 145.5,
    "videos": [
      {
        "videoId": "N8_Wln6JgkM",
        "title": "Behind The Design and Build of A Luxury Farm Stay"
      }
    ]
  },
  {
    "name": "Nilma Farm Stay",
    "location": "Nilma",
    "lat": -38.2,
    "lng": 146.0667,
    "videos": [
      {
        "videoId": "whu0gLbiA3c",
        "title": "Pet-Friendly Farm Stay Victoria"
      }
    ]
  },
  {
    "name": "High Country Farmstay",
    "location": "Victorian High Country",
    "lat": -37.0,
    "lng": 146.5,
    "videos": [
      {
        "videoId": "mv3b_LgFEec",
        "title": "#farmstay #buggyride #vacation #trip #sunnyday #australia #victoria #highcountry #melbourne"
      }
    ]
  },
  {
    "name": "Emerald Farmstay",
    "location": "Emerald",
    "lat": -37.9333,
    "lng": 145.4333,
    "videos": [
      {
        "videoId": "x7HXPaAEzCA",
        "title": "A day in Emerald, Victoria + farm stay"
      }
    ]
  },
  {
    "name": "Ryan's Ranch Retreat",
    "location": "Lara",
    "lat": -38.0167,
    "lng": 144.4,
    "videos": [
      {
        "videoId": "UYUU3JmOneA",
        "title": "A Farmstay at Wadawurrung (Victoria)"
      }
    ]
  },
  {
    "name": "Caringal Farmstay",
    "location": "Caringal",
    "lat": -38.4833,
    "lng": 146.5167,
    "videos": [
      {
        "videoId": "gY-xsCOuo_w",
        "title": "Horse and the alpaca\ud83d\udc34\ud83e\udd99At Farmstay in Caringal,Victoria \ud83c\udde6\ud83c\uddfa"
      }
    ]
  },
  {
    "name": "Bayview Boathouse",
    "location": "Gippsland Lakes",
    "lat": -37.8667,
    "lng": 147.6333,
    "videos": [
      {
        "videoId": "0qQ2VgXv62s",
        "title": "Farm Stay accommodation Victoria"
      },
      {
        "videoId": "5yxUBric234",
        "title": "Hot springs accommodation Victoria | Farm Stay accommodation Victoria"
      },
      {
        "videoId": "ktJ6-GMGRJA",
        "title": "Country Retreat Accommodation Victoria"
      }
    ]
  },
  {
    "name": "Wappan Station",
    "location": "Maindample",
    "lat": -37.0167,
    "lng": 145.9333,
    "videos": [
      {
        "videoId": "zfSDnvDBOIU",
        "title": "Why Should Try A Wappan Station Farmstay Victoria"
      },
      {
        "videoId": "aNzt801VgHM",
        "title": "Shearers Quarters Farm Accommodation for Your Big Group"
      }
    ]
  },
  {
    "name": "Lakes Entrance Farm Stay",
    "location": "Lakes Entrance",
    "lat": -37.8667,
    "lng": 148.0,
    "videos": [
      {
        "videoId": "hFmnjzFWe4k",
        "title": "Rural Farm Stay, Lakes Entrance, Victoria"
      }
    ]
  },
  {
    "name": "Valley Farm Vineyard",
    "location": "Yarra Valley",
    "lat": -37.75,
    "lng": 145.5333,
    "videos": [
      {
        "videoId": "8ef69xrgqVU",
        "title": "Valley Farm Vineyard Cottages, Accommodation and Winery in Melbourne offering Wine Tour"
      }
    ]
  },
  {
    "name": "Serendipity Lavender Farm",
    "location": "Nar Nar Goon North",
    "lat": -38.0167,
    "lng": 145.8,
    "videos": [
      {
        "videoId": "UrXV9Uj9Gxo",
        "title": "Serendipity Lavender Farm - accommodation at Nar Nar Goon North, Victoria, Australia."
      }
    ]
  },
  {
    "name": "Timboon House",
    "location": "Camperdown",
    "lat": -38.2333,
    "lng": 143.1167,
    "videos": [
      {
        "videoId": "XVXgmjyrNpA",
        "title": "Timboon House accommodation at Camperdown, Victoria, Australia."
      }
    ]
  },
  {
    "name": "Mount Pleasant Homestead",
    "location": "Wangaratta",
    "lat": -36.35,
    "lng": 146.3167,
    "videos": [
      {
        "videoId": "Q_pejhByZSc",
        "title": "Mount Pleasant Homestead - accommodation near Wangaratta, Victoria, Australia."
      }
    ]
  },
  {
    "name": "Lysterfield Farm",
    "location": "Lysterfield",
    "lat": -37.9333,
    "lng": 145.3,
    "videos": [
      {
        "videoId": "ewdZtjLxz28",
        "title": "#farm , #lysterfield, Melbourne, Victoria, Australia."
      }
    ]
  },
  {
    "name": "Lon Retreat and Spa",
    "location": "Bellarine Peninsula",
    "lat": -38.2667,
    "lng": 144.4167,
    "videos": [
      {
        "videoId": "JKf8aIu1WiA",
        "title": "The Incredible Lon Retreat and Spa - Bellarine Peninsula, Victoria, Australia"
      }
    ]
  },
  {
    "name": "Lakehouse Daylesford",
    "location": "Daylesford",
    "lat": -37.35,
    "lng": 144.15,
    "videos": [
      {
        "videoId": "bXrYHGw7iek",
        "title": "Countryside Retreat in Daylesford, Victoria"
      },
      {
        "videoId": "5OQjhN-bfcM",
        "title": "Daylesford A Must Visit Escape in Australia \ud83c\udde6\ud83c\uddfa #Daylesford #VisitVictoria #natureescape"
      }
    ]
  },
  {
    "name": "Jamieson Valley Retreat",
    "location": "Jamieson",
    "lat": -37.3167,
    "lng": 146.15,
    "videos": [
      {
        "videoId": "pNySyM-1bGw",
        "title": "Jamieson Valley Retreat, VIC, Australia"
      }
    ]
  },
  {
    "name": "Vivere Retreat",
    "location": "Nerrim South",
    "lat": -38.1,
    "lng": 145.9333,
    "videos": [
      {
        "videoId": "SyJe2CRpgUk",
        "title": "Vivere Retreat Cottage Stay: Nerrim South, Victoria, Australia"
      }
    ]
  },
  {
    "name": "Cleveland Estate",
    "location": "Macedon Ranges",
    "lat": -37.4,
    "lng": 144.5667,
    "videos": [
      {
        "videoId": "1WdVebYMzW4",
        "title": "Romantic Getaway in Macedon Ranges | Cleveland Estate Luxury Stay Near Melbourne | Regional Victoria"
      }
    ]
  },
  {
    "name": "Wombalano Country Retreat",
    "location": "Regional Victoria",
    "lat": -37.5,
    "lng": 145.5,
    "videos": [
      {
        "videoId": "-pLWlnpapH4",
        "title": "Sunrise at Wombalano Country Retreat, Victoria, Australia."
      }
    ]
  },
  {
    "name": "Candlebark Retreat",
    "location": "Beechworth",
    "lat": -36.35,
    "lng": 146.6833,
    "videos": [
      {
        "videoId": "RQg2Ka2X8fk",
        "title": "Candlebark Retreat - Beechworth - Australia"
      }
    ]
  },
  {
    "name": "Braeside Mt Macedon",
    "location": "Mount Macedon",
    "lat": -37.4,
    "lng": 144.5833,
    "videos": [
      {
        "videoId": "Vh9pPsR-zbw",
        "title": "The Cosy Braeside Mt Macedon Country Retreat"
      }
    ]
  },
  {
    "name": "Alkira Glamping",
    "location": "Regional Victoria",
    "lat": -37.5,
    "lng": 145.5,
    "videos": [
      {
        "videoId": "PaOkUx612Ng",
        "title": "GLAMPING IN VICTORIA #glamping #ecoescape #visitvictoria"
      }
    ]
  },
  {
    "name": "Blue Lotus Water Garden",
    "location": "Yarra Valley",
    "lat": -37.7167,
    "lng": 145.4833,
    "videos": [
      {
        "videoId": "YL1r10VoSjw",
        "title": "HOLIDAY HERE | Blue Garden Lotus farm | Victoria | Australia"
      }
    ]
  },
  {
    "name": "Lavandula Swiss Italian Farm",
    "location": "Daylesford",
    "lat": -37.35,
    "lng": 144.15,
    "videos": [
      {
        "videoId": "teJhG2HKLnQ",
        "title": "#lavandula Swiss Italian farm at #Daylesford #Victoria #weekendtrip #reels #australia#travel#holiday"
      }
    ]
  },
  {
    "name": "Jay's Berry Farm",
    "location": "Melbourne Region",
    "lat": -37.8136,
    "lng": 144.9631,
    "videos": [
      {
        "videoId": "vJB-RPAOQ_s",
        "title": "Come Pick Fresh Berries at Jay&#39;s Farm \ud83c\udf53\ud83e\uddfa | Melbourne"
      }
    ]
  },
  {
    "name": "Morgan Vineyards",
    "location": "Seville",
    "lat": -37.75,
    "lng": 145.4833,
    "videos": [
      {
        "videoId": "tjE8Kw1BGRM",
        "title": "Morgan Vineyards - Seville, Victoria, Australia"
      }
    ]
  },
  {
    "name": "The Berry Dairy",
    "location": "Gippsland",
    "lat": -38.4167,
    "lng": 145.95,
    "videos": [
      {
        "videoId": "4FiqiquHqMQ",
        "title": "Top Gippsland Attraction for Families | The Berry Dairy Tour"
      }
    ]
  },
  {
    "name": "Scotch Hill Truffle Farm",
    "location": "Baw Baw",
    "lat": -37.8333,
    "lng": 146.2667,
    "videos": [
      {
        "videoId": "vslv-giZ_0U",
        "title": "BOOGIE THE SCOTCH HILL TRUFFLE DOG | FIRST TRUFFLE HUNT"
      }
    ]
  },
  {
    "name": "Benetook Farm",
    "location": "Mildura",
    "lat": -34.2167,
    "lng": 142.15,
    "videos": [
      {
        "videoId": "CTOsQGG2a4k",
        "title": "Benetook Farm Tourism 2020"
      }
    ]
  },
  {
    "name": "Melliodora Permaculture",
    "location": "Hepburn Springs",
    "lat": -37.3,
    "lng": 144.15,
    "videos": [
      {
        "videoId": "ss1BjW2kSNs",
        "title": "World Famous Permaculture Property Tour | David Holmgren and Su Dennett&#39;s Melliodora"
      }
    ]
  },
  {
    "name": "Rosehaven Farms",
    "location": "Regional Victoria",
    "lat": -37.5,
    "lng": 145.5,
    "videos": [
      {
        "videoId": "BQpdOU8Tr5A",
        "title": "Meet alpacas, donkeys &amp; more at Rosehaven Farms! | \ud83c\udf81 2024 Christmas Gift Guide #GiftGuide #FarmLife"
      }
    ]
  },
  {
    "name": "Chesterfield Farm",
    "location": "Scoresby",
    "lat": -37.8833,
    "lng": 145.2333,
    "videos": [
      {
        "videoId": "jN2NHIWgSZM",
        "title": "A visit to Chesterfield Farm | Australian Life | Victoria"
      }
    ]
  },
  {
    "name": "Murrnong Farm",
    "location": "Regional Victoria",
    "lat": -37.5,
    "lng": 145.0,
    "videos": [
      {
        "videoId": "aWNfSbRZ-L0",
        "title": "Permaculture Farm Experience | Murrnong Farm | Victoria, Australia | By Abhay Sharma"
      }
    ]
  },
  {
    "name": "Bundoora Park Farm",
    "location": "Bundoora",
    "lat": -37.7,
    "lng": 145.0667,
    "videos": [
      {
        "videoId": "KvJJzmIDaO8",
        "title": "Bundoora Farm, Victoria from above // #Comingupforair"
      }
    ]
  },
  {
    "name": "Rainbow Trout Farm",
    "location": "Marysville",
    "lat": -37.5167,
    "lng": 145.75,
    "videos": [
      {
        "videoId": "EROSqJsbbCs",
        "title": "RainBow Trout Farm - Fun Day Out Fishing experience | Australia Life Culture ALC"
      }
    ]
  },
  {
    "name": "Collingwood Childrens Farm",
    "location": "Abbotsford",
    "lat": -37.7983,
    "lng": 145.0017,
    "videos": [
      {
        "videoId": "P4jvU7ZeQdY",
        "title": "Aerial view - Historical images - walkabout : Collingwood Children&#39;s Farm - Abbotsford Victoria AUS"
      }
    ]
  },
  {
    "name": "Rocky Creek Strawberry Farm",
    "location": "Main Ridge",
    "lat": -38.4167,
    "lng": 145.0167,
    "videos": [
      {
        "videoId": "ArZ7tTcliuE",
        "title": "Strawberry Picking near Melbourne - Rocky Creek Strawberry Farm #melbourne #strawberry #travel"
      }
    ]
  },
  {
    "name": "Philip Island Dairy Farm",
    "location": "Phillip Island",
    "lat": -38.4833,
    "lng": 145.2333,
    "videos": [
      {
        "videoId": "QXfA0rneK3Q",
        "title": "A visit to a dairy farm / philip island Victoria Australia"
      }
    ]
  },
  {
    "name": "Buninyong Blueberry Farm",
    "location": "Buninyong",
    "lat": -37.65,
    "lng": 143.8833,
    "videos": [
      {
        "videoId": "b2ZsfSy11m0",
        "title": "Blueberry Picking at One of Victoria\u2019s Oldest Farms \ud83e\uded0 | Buninyong Blueberry Farm | Amazing Australia"
      }
    ]
  },
  {
    "name": "Mansfield Tiny House",
    "location": "Mansfield",
    "lat": -37.05,
    "lng": 146.0833,
    "videos": [
      {
        "videoId": "MgDPZbUXeOo",
        "title": "Our tiny house stay in Mansfield, Victoria"
      }
    ]
  }
]